{"offices":[{"id":"ChIJayqm5k0_2YARMCUFlgxcIlY","phone":"664 288 2222","address":"Blvd, Blvd. Cucapah 3674, Ex-Ejido Mariano Matamoros, Granjas Familiares del Matamoros, 22203 Tijuana, B.C., Mexico","lat":32.513885099999996,"lng":-116.88539159999999,"name":"Tijuana recyclers Eco Recycling","region":""},{"id":"ChIJV_HKuls32YARcnkPUq5rDo8","phone":"664 210 7015","address":"Av. Paseo Vista del Rey 11313, La Gloria, 22645 La Joya, B.C., Mexico","lat":32.4342426,"lng":-117.0190386,"name":"Recicladora real","region":""},{"id":"ChIJCb7umd4-2YARN45-f3qr0k4","phone":"664 250 6390","address":"Blvd. Hermenegildo Galeana 32, Matamoros Norte-Centro-Sur, Mariano Matamoros, 22206 Tijuana, B.C., Mexico","lat":32.4841609,"lng":-116.87191769999998,"name":"Recicladora Eco-recycling Villa","region":""},{"id":"ChIJO9HNvds_2YARVp0ek4afJY4","phone":"664 899 8948","address":"La Morita, 22245 Tijuana, B.C., Mexico","lat":32.4726237,"lng":-116.83382909999999,"name":"Recuperadora Baja JK","region":""},{"id":"ChIJQ40b0ns32YARBv7frR4uqbc","phone":"664 626 0202","address":"Calle Miguel Hidalgo 7951, El Tecolote, 22644 Tijuana, B.C., Mexico","lat":32.4537385,"lng":-116.99302929999999,"name":"Eco Recycling - Tecolote","region":""},{"id":"ChIJ7zZMFRM52YARneaZeo89iLI","phone":"664 972 6601","address":"Derecho De Vía 22123, La Presa, Paseo Los Reyes, 22123 Tijuana, B.C., Mexico","lat":32.4579556,"lng":-116.92265200000001,"name":"Eco Recycling - La Presa","region":""},{"id":"ChIJYfDUSHgk-xQRnp9wJw-2h3E","phone":"664 637 6896","address":"Miguel Hidalgo 6923, Loma Bonita Nte., 22604 Tijuana, B.C., Mexico","lat":32.4798837,"lng":-117.05196219999999,"name":"Recicladora California","region":""},{"id":"ChIJmwgT6UU_2YARznFgNui2eVU","phone":"664 265 7606","address":"Cucapah, Francisco Villa 2da Secc, 22236 Tijuana, B.C., Mexico","lat":32.478355,"lng":-116.86439249999998,"name":"Recicladora Morales","region":""},{"id":"ChIJLeOAtSE22YARBPICP-KY_9A","phone":"664 700 9539","address":"Libramiento Flores Magón 3507, Salvatierra, La Cueva, 22607 Tijuana, B.C., Mexico","lat":32.4840073,"lng":-117.07627339999998,"name":"Eco Recycling - Salvatierra","region":""},{"id":"ChIJE9NzJgxI2YARYjy1_N5VD8o","phone":"664 372 1464","address":"Rumorosa 16, Buena Vista, Sepanal, 22415 Tijuana, B.C., Mexico","lat":32.518352,"lng":-116.99286239999998,"name":"Recicladora Sepanal","region":""},{"id":"ChIJicUAkEAx2YARzLaMah0VbyU","phone":"661 613 4012","address":"Jose Aroz Aguilar 192, Lucio Blanco, 22710 Playas de Rosarito, B.C., Mexico","lat":32.386319,"lng":-117.056614,"name":"Eco Recycling - Rosarito","region":""},{"id":"ChIJS4uFdyU42YAR271JxyQP08Q","phone":"","address":"C. Río Éufrates 8451, Camino Verde, 22190 Tijuana, B.C., Mexico","lat":32.4756565,"lng":-116.9762729,"name":"Recicladora El Pulpo","region":""},{"id":"ChIJDYTSahM52YARQOzLpNTF-eI","phone":"664 971 3105","address":"Blvd. Olivas, Terrazas del Valle, 22246 Tijuana, B.C., Mexico","lat":32.4790156,"lng":-116.8244502,"name":"Eco Recycling - Terrazas del Valle","region":""},{"id":"ChIJX0mV1ydI2YAR6m1o6AdPiB8","phone":"","address":"Canon de la Piedrera 100, Cañon de la Pedrera, 22035 Tijuana, B.C., Mexico","lat":32.49837,"lng":-117.02040749999999,"name":"Recicladora San MARTIN","region":""},{"id":"ChIJ6Xg8SBI52YARBcw-C9HiXDE","phone":"664 902 3578","address":"Blvd. Gustavo Díaz Ordaz 1366, Los Reyes, 22125 Tijuana, B.C., Mexico","lat":32.459419499999996,"lng":-116.92404440000001,"name":"Cali Baja Ambiental S. de R.L. de C.V.","region":""},{"id":"ChIJZS8t_JU52YARmCzyHV6RV6g","phone":"664 614 0440","address":"Av. Paseo Reforma, Rubio, 22116 Tijuana, B.C., Mexico","lat":32.4805217,"lng":-116.9452786,"name":"Recicladora El Triángulo","region":""},{"id":"ChIJ0wzdQUs52YARmdKjn-wfFV4","phone":"664 903 2241","address":"Esq. Ave. Jaime Pujol y Calle 2 de Julio, Valle Redondo, 22720 Tijuana, B.C., Mexico","lat":32.4718052,"lng":-116.79457599999999,"name":"Eco Recycling - Maclovio","region":""},{"id":"ChIJEzWxkzw_2YARgL2OZw7QcmU","phone":"664 116 6684","address":"C. 14 7508, El Pipila, 22206 Tijuana, B.C., Mexico","lat":32.5004231,"lng":-116.871891,"name":"Recicladora La Catorce","region":""},{"id":"ChIJaaleUUhH2YARR5SGWYmbwMA","phone":"664 250 6329","address":"C. Granizo 660, Las Torres, 22470 Tijuana, B.C., Mexico","lat":32.5427465,"lng":-116.9001024,"name":"Eco Recycling - Las Torres","region":""},{"id":"ChIJpWDpvGFI2YARY4m8_uYepIs","phone":"664 682 4412","address":"Manuel Oviedo 1433, Libertad, 22400 Tijuana, B.C., Mexico","lat":32.532164,"lng":-117.01153499999998,"name":"Metales Cimarrón","region":""}],"regions":[{"coords":{"lat":2.9660291,"lng":1.3271339},"id":"africa-middle-east","name":"África y Oriente Medio","zoom":3},{"coords":{"lat":0.0524811,"lng":127.6560787},"id":"asia-pacific","name":"Asia Pacífico","zoom":3},{"coords":{"lat":46.1352815,"lng":7.4033438},"id":"europe","name":"Europa","zoom":4},{"coords":{"lat":-17.5554497,"lng":-99.2316195},"id":"latin-america","name":"Latinoamérica","zoom":3},{"coords":{"lat":45.7128252,"lng":-97.1547448},"id":"north-america","name":"Norteamérica","zoom":4}]}